"NAME","LINE","weight","lon","lat","zipcode"
"W 4th St - Washington Sq (Lower)","B-D-F-M",4,-74.0003081470682,40.7322548265067,"10011"
"Buhre Ave","6-6 Express",2,-73.8325689992475,40.8468103326148,"10461"
"51st St","4-6-6 Express",3,-73.9719200001331,40.7571073331482,"10022"
"Brooklyn Bridge - City Hall","4-5-6-6 Express",4,-74.004131001117,40.713065332984,"10007"
"33rd St","4-6-6 Express",3,-73.9820760012492,40.7460813321576,"10016"
"Lexington Ave - 59th St","4-5-6-6 Express",4,-73.9679670006644,40.7625263338917,"10022"
"Hunts Point Ave","6-6 Express",2,-73.8905489997539,40.8209483318663,"10459"
"Middletown Rd","6-6 Express",2,-73.8363219973265,40.8438633346736,"10461"
"23rd St","4-6-6 Express",3,-73.9865990018398,40.7398643335507,"10010"
"45th Rd - Court House Sq","7-7 Express",2,-73.9452640006534,40.7470233318634,"11101"
"Astor Pl","4-6-6 Express",3,-73.991069998955,40.7300543337693,"10003"
"Hunters Point Ave","7-7 Express",2,-73.9489160011607,40.7422163332617,"11101"
"96th St","4-6-6 Express",3,-73.9510700007068,40.7856723334853,"10128"
"Mets - Willets Point","7-7 Express",2,-73.8456249978672,40.7546223324577,"11368"
"3rd Ave - 138th St","6-6 Express",2,-73.9261380002227,40.8104763345413,"10454"
"Zerega Ave","6-6 Express",2,-73.8470359980455,40.8364883336629,"10462"
"104th St","A-S",2,-73.8376829999374,40.6817113342027,"11417"
"Bleecker St (Downtown)","4-6-6 Express",3,-73.9946746782957,40.7259312382293,"10012"
"Castle Hill Ave","6-6 Express",2,-73.851221999209,40.8342553318321,"10462"
"Broad Channel","A-S",2,-73.8158326867774,40.608402513982,"11693"
"Ocean Pkwy","Q",1,-73.9685010000048,40.5763120005781,"11235"
"Vernon Blvd - Jackson Ave","7-7 Express",2,-73.9535809988201,40.7426263325713,"11101"
"68th St - Hunter College","4-6-6 Express",3,-73.9638700014866,40.768141333904,"10065"
"Queensboro Plz","7-7 Express-N-W",4,-73.9401635343974,40.7506359843809,"11101"
"Rockaway Blvd","A-S",2,-73.8438529971175,40.6804293333504,"11417"
"Union Sq - 14th St","4-5-6-6 Express",4,-73.9899509988699,40.734673334561,"10003"
"Junction Blvd","7-7 Express",2,-73.8695269997965,40.7491453327311,"11372"
"Classon Ave","G",1,-73.9599900012696,40.6888893336764,"11238"
"Bedford - Nostrand Aves","G",1,-73.9535219998762,40.6896273349134,"11205"
"15th St - Prospect Park","F-G",2,-73.979735806077,40.6600360216855,"11215"
"7th Ave","F-G",2,-73.9802511788693,40.6662450236906,"11215"
"Ft Hamilton Pkwy","F-G",2,-73.9757759988599,40.6507820009882,"11218"
"Church Ave","F-G",2,-73.979721161672,40.6442723334661,"11218"
"Beverly Rd","B-Q",2,-73.9643577954928,40.643904931656,"11226"
"Church Ave","B-Q",2,-73.9628824614487,40.6504935798757,"11226"
"Newkirk Ave","B-Q",2,-73.9626948684797,40.6351422703947,"11226"
"Parkside Ave","B-Q",2,-73.9614534400078,40.6550733747171,"11226"
"Prospect Park","B-Q-S",3,-73.9620313045171,40.6616337881714,"11225"
"Atlantic Ave","2-3-4-5",4,-73.9775499355033,40.684420498534,"11217"
"Rockaway Ave","A-C",2,-73.9119459972732,40.6783403332411,"11233"
"Fulton St","G",1,-73.9753749987391,40.6871193326578,"11217"
"Clinton - Washington Aves","G",1,-73.9667959983086,40.6880943345886,"11238"
"7th Ave","B-Q",2,-73.9728527914631,40.677102512887,"11217"
"Atlantic Ave","B-Q",2,-73.9767834393111,40.6844886564364,"11217"
"Union St","D-N-R",3,-73.9831099993178,40.67731600046,"11215"
"Atlantic Av - Pacific St","D-N-R",3,-73.9788099993486,40.6836660004799,"11217"
"Aqueduct Racetrack (To Manh Only)","A",1,-73.8359189987941,40.6720973323055,"11420"
"DeKalb Ave","B-D-N-Q-R",5,-73.9818240003622,40.6906350003393,"11201"
"Morris Park","5",1,-73.860494999982,40.8543643327002,"10462"
"Pelham Pkwy","5",1,-73.8553590000599,40.8589853329393,"10469"
"Nostrand Ave","A-C",2,-73.9504260004855,40.6804383331073,"11216"
"Nevins St","2-3-4-5",4,-73.980406798672,40.6883109131059,"11217"
"Franklin Ave","2-3-4-5",4,-73.9580997365901,40.6707654864579,"11238"
"Kingston - Throop Aves","A-C",2,-73.9408589983913,40.679919332914,"11216"
"Nassau Ave","G",1,-73.951182999797,40.7244803311835,"11222"
"Greenpoint Ave","G",1,-73.9544250017508,40.7312673327231,"11222"
"Marcy Ave","J-M-Z",3,-73.9578319999986,40.7083833336101,"11211"
"Hewes St","J-M",2,-73.9534880004084,40.706890331218,"11211"
"Essex St","J-M-Z",3,-73.9874094023336,40.7183063890855,"10002"
"5th Ave - 53rd St","E-M",2,-73.9752485046603,40.7600871659611,"10022"
"Lexington Ave - 53rd St","E-M",2,-73.9690723741774,40.7574686415725,"10022"
"28th St","N-R",2,-73.9886980006627,40.7454543333092,"10001"
"Herald Sq - 34th St","N-Q-R",3,-73.987936833243,40.7496448930789,"10001"
"1st Ave","L",1,-73.9816808750906,40.7309753087607,"10009"
"Grand Central - 42nd St","S",1,-73.9791890000073,40.7527690001726,"10017"
"Times Sq - 42nd St","S",1,-73.9862289999369,40.7559833334829,"10036"
"42nd St - Bryant Pk","B-D-F-M",4,-73.984590998399,40.7541843346297,"10018"
"Times Sq - 42nd St","N-Q-R",3,-73.986768002027,40.7546123322309,"10018"
"Metropolitan Ave","G",1,-73.9514239995615,40.71277433427,"11211"
"Grand St","L",1,-73.9404969989824,40.711576333817,"11206"
"Graham Ave","L",1,-73.9439439978816,40.7145763314997,"11211"
"Lorimer St","L",1,-73.9502480001933,40.7140723341722,"11211"
"Bedford Ave","L",1,-73.9566649983702,40.7171743323137,"11211"
"Broadway","G",1,-73.9503122559599,40.7061269098407,"11211"
"Lorimer St","J-M",2,-73.9473549981359,40.7038443337936,"11206"
"Montrose Ave","L",1,-73.9397928465133,40.7073913972525,"11206"
"23rd St - Ely Av","E-M",2,-73.946054702705,40.7477684547948,"11101"
"Long Island City - Court Sq","G",1,-73.9438155955716,40.746305367062,"11101"
"21st St","G",1,-73.9495999993798,40.7441290000131,"11101"
"39th Ave","N-Q",2,-73.9328513760691,40.7527633945594,"11101"
"36th Ave","N-Q",2,-73.9298619983324,40.7564423334375,"11106"
"145th St","1",1,-73.9503599980951,40.8265513327747,"10031"
"157th St","1",1,-73.9448899987428,40.8340413335439,"10032"
"103rd St","1",1,-73.9683789992483,40.7994463339473,"10025"
"103rd St","A-B-C",3,-73.9613700821619,40.7960610735625,"10025"
"Cathedral Pkwy (110th St)","A-B-C",3,-73.9580667066435,40.8005818915856,"10026"
"72nd St","A-B-C",3,-73.9763365754865,40.7755197310346,"10023"
"81st St","A-B-C",3,-73.9720979494143,40.7813464177244,"10024"
"75th Ave","E-F",2,-73.8369236931772,40.7180449870688,"11375"
"Kew Gardens - Union Tpke","E-F",2,-73.8303702701751,40.7140351529375,"11375"
"86th St","A-B-C",3,-73.9688284945621,40.7858233796515,"10024"
"96th St","A-B-C",3,-73.9646024565511,40.7916191312481,"10025"
"Cathedral Pkwy (110th St)","1",1,-73.9668470001432,40.8039673330169,"10025"
"116th St - Columbia University","1",1,-73.9641099979358,40.8077223342619,"10027"
"149th St - Grand Concourse","4",1,-73.9273847543082,40.8183037768467,"10451"
"Tremont Ave","B-D",2,-73.9052270008802,40.8504103331881,"10457"
"182nd-183rd Sts","B-D",2,-73.9007409992675,40.8560933318779,"10453"
"137th St - City College","1",1,-73.9536760003415,40.8220083326451,"10031"
"145th St","3",1,-73.9362449989074,40.8204213329788,"10039"
"176th St","4",1,-73.9117939980515,40.8484803342341,"10453"
"Burnside Ave","4",1,-73.907684000665,40.8534533344287,"10453"
"170th St","B-D",2,-73.9133999979605,40.8393063333288,"10456"
"174th-175th Sts","B-D",2,-73.9101360000398,40.8459003335721,"10457"
"168th St","1",1,-73.9401329988971,40.840556332855,"10032"
"181st St","1",1,-73.9335959998165,40.8495053332961,"10033"
"168th St","A-C",2,-73.9395609998789,40.8407193334653,"10032"
"191st St","1",1,-73.9294119976112,40.8552253350092,"10040"
"175th St","A",1,-73.9397039967384,40.847391333954,"10033"
"Beach 44th St","A",1,-73.7760129988685,40.5929433326258,"11691"
"Beach 60th St","A",1,-73.7885219971778,40.5923743346158,"11692"
"Beach 105th St","A-S",2,-73.8275807493167,40.5832687709788,"11694"
"Beach 98th St","A-S",2,-73.8205205887206,40.5853860242542,"11694"
"Rockaway Park - Beach 116 St","A-S",2,-73.8355900859632,40.5809561991664,"11694"
"Beach 90th St","A-S",2,-73.8136514029455,40.588091897681,"11693"
"Beach 36th St","A",1,-73.7681749979281,40.5953983345618,"11691"
"Beach 25th St","A",1,-73.7613529967364,40.6000663342196,"11691"
"Parsons Blvd","F",1,-73.8032889987805,40.7075723332744,"11432"
"169th St","F",1,-73.7934741978183,40.7105178363858,"11432"
"103rd St - Corona Plaza","7",1,-73.8626999970616,40.7498653343015,"11368"
"111th St","7",1,-73.8553339972923,40.7517303329996,"11368"
"63rd Dr - Rego Park","E-M-R",3,-73.8616182002906,40.7297643054718,"11374"
"Grant Ave","A-S",2,-73.8650499980871,40.6770443338524,"11208"
"Atlantic Ave","L",1,-73.9030969991575,40.6753449994431,"11207"
"E 149th St","6",1,-73.9040979979672,40.8121183317381,"10455"
"Ozone Park - Lefferts Blvd","A-S",2,-73.8257979983959,40.6859513319996,"11419"
"Times Sq - 42nd St","7-7 Express",2,-73.98769099766,40.7554773349907,"10036"
"77th St","4-6-6 Express",3,-73.9598739980726,40.773620334015,"10075"
"Woodside - 61st St","7-7 Express",2,-73.9029840008524,40.7456303340139,"11377"
"111th St","A-S",2,-73.8321629979319,40.6843313334254,"11419"
"Flushing - Main St","7-7 Express",2,-73.8300300018334,40.7596003323731,"11354"
"W 8th St - NY Aquarium","F-Q",2,-73.9759578740408,40.5760341512,"11224"
"28th St","4-6-6 Express",3,-73.9842640014962,40.7430703328279,"10016"
"Pelham Bay Park","6-6 Express",2,-73.8281209999572,40.8524623331459,"10461"
"Westchester Sq - E Tremont Ave","6-6 Express",2,-73.8429519983541,40.8398923343977,"10461"
"Grand Central - 42nd St","4-5-6-6 Express",4,-73.9767132993616,40.751807763115,"10017"
"Grand Central - 42nd St","7-7 Express",2,-73.9760410011979,40.7514313335169,"10017"
"Canal St","4-6-6 Express",3,-74.0001929990036,40.7188033347274,"10013"
"Beach 67th St","A",1,-73.7969239989953,40.5909273342904,"11692"
"W 4th St - Washington Sq (Upper)","A-C-E",3,-74.0004950022555,40.7323383313815,"10011"
"67th Ave","E-M-R",3,-73.8528604836807,40.7265058093468,"11375"
"85th St - Forest Pky","J",1,-73.8600869993383,40.6924273330436,"11421"
"Woodhaven Blvd","J-Z",2,-73.852051996988,40.6937043325497,"11421"
"111th St","J",1,-73.83679338317,40.6971151444217,"11418"
"121st St","J-Z",2,-73.8283489992264,40.7004823316749,"11418"
"Sutphin Blvd - Archer Av","E-J-Z",3,-73.8080047191644,40.7003827575236,"11435"
"Halsey St","L",1,-73.9039340004711,40.6955183344819,"11385"
"Myrtle Ave","L",1,-73.9109757178022,40.6994713953381,"11237"
"Van Siclen Ave","A-C",2,-73.8903579997702,40.672710332124,"11207"
"Van Siclen Ave","J-Z",2,-73.8916577259907,40.6780285481337,"11207"
"Cleveland St","J",1,-73.8851940012429,40.6797783323,"11208"
"Livonia Ave","L",1,-73.9005623715632,40.6640576041823,"11212"
"Sutter Ave","L",1,-73.9019159995944,40.6691453337527,"11207"
"Canarsie - Rockaway Pkwy","L",1,-73.901849999934,40.6466540004455,"11236"
"E 105th St","L",1,-73.8995476931416,40.6504691184121,"11236"
"New Lots Ave","L",1,-73.8992779601228,40.6589151068904,"11207"
"Far Rockaway - Mott Ave","A",1,-73.7554049978951,40.6039953347203,"11691"
"Chauncey St","J-Z",2,-73.9103835693095,40.6828516344945,"11207"
"Broadway Junction","J-Z",2,-73.9042899974254,40.6793663345746,"11207"
"Halsey St","J",1,-73.916638883951,40.6864156044436,"11221"
"Alabama Ave","J",1,-73.8985260009904,40.6769983336011,"11207"
"Shepherd Ave","A-C",2,-73.880749997103,40.6741303348593,"11208"
"Norwood Ave","J-Z",2,-73.8796259983383,40.6815203338948,"11208"
"Crescent St","J-Z",2,-73.8739292519041,40.6831529904789,"11208"
"Cypress Hills","J",1,-73.8733219982876,40.6896163341963,"11208"
"75th St - Eldert Ln","J-Z",2,-73.8672879987574,40.6912903346217,"11421"
"69th St","7",1,-73.8964029983861,40.7463253328243,"11377"
"74th St - Broadway","7",1,-73.8912051283828,40.7468679074099,"11372"
"65th St","E-M-R",3,-73.8987883776697,40.7497198627115,"11377"
"Woodhaven Blvd - Queens Mall","E-M-R",3,-73.8694320849921,40.7330977071504,"11373"
"Wyckoff Ave","M",1,-73.9121789987564,40.6994543346486,"11237"
"Seneca Ave","M",1,-73.9075819984298,40.7029193326273,"11385"
"DeKalb Ave","L",1,-73.9182320015304,40.7036933325686,"11237"
"52nd St","7",1,-73.9125489981402,40.7441493343501,"11377"
"46th St","E-M-R",3,-73.9135217500593,40.756317285998,"11103"
"Northern Blvd","E-M-R",3,-73.906065080282,40.7528251629622,"11377"
"46th St","7",1,-73.9184350005547,40.7431323341285,"11377"
"82nd St - Jackson Hts","7",1,-73.8836969998635,40.7476593332024,"11373"
"90th St - Elmhurst Av","7",1,-73.876612998942,40.7484083340029,"11372"
"Grand Ave - Newtown","E-M-R",3,-73.877220855937,40.7368137512089,"11373"
"Elmhurst Ave","E-M-R",3,-73.8820347458897,40.7423704130037,"11373"
"Howard Beach - JFK Airport","A",1,-73.8303009993043,40.6604763331232,"11414"
"Aqueduct - North Conduit Av","A",1,-73.8340579988262,40.6682343345803,"11420"
"104th-102nd Sts","J-Z",2,-73.8444349990019,40.6951663318889,"11418"
"Briarwood - Van Wyck Blvd","E-F",2,-73.820692635539,40.7091621488633,"11415"
"Forest Hills - 71st Av","E-F-M-R",4,-73.8445167192069,40.7215946429369,"11375"
"Sutphin Blvd","F",1,-73.8108329982717,40.70541833253,"11435"
"Jamaica - Van Wyck","E",1,-73.8170128702603,40.7028988865983,"11418"
"Jamaica Ctr - Parsons / Archer","E-J-Z",3,-73.8010963219811,40.7020677092466,"11432"
"Elder Ave","6",1,-73.8791589978173,40.8285843345728,"10472"
"Morrison Av - Soundview","6",1,-73.8745159988442,40.8295213350983,"10472"
"Longwood Ave","6",1,-73.896434998649,40.8161043336435,"10455"
"Astoria Blvd","N-Q",2,-73.9180950008212,40.7700373325174,"11102"
"Astoria - Ditmars Blvd","N-Q",2,-73.912034000185,40.7750359996785,"11105"
"Cypress Ave","6",1,-73.9140419994169,40.8053683343519,"10454"
"Whitlock Ave","6",1,-73.8862829983243,40.8265253338019,"10459"
"E 143rd St - St Mary's St","6",1,-73.9076569988395,40.8087193341365,"10455"
"Kingsbridge Rd","4",1,-73.8971740010191,40.8677603337447,"10468"
"Bedford Park Blvd - Lehman College","4",1,-73.8900640005615,40.8734123326929,"10468"
"Harlem - 148 St","3",1,-73.9364699999187,40.8238803340759,"10039"
"Mt Eden Ave","4",1,-73.9146849986493,40.8444343338333,"10452"
"Fordham Rd","B-D",2,-73.8977490007685,40.8612963318204,"10468"
"170th St","4",1,-73.9177909970935,40.840075332835,"10452"
"Kingsbridge Rd","B-D",2,-73.893509000031,40.8669783333191,"10458"
"Bedford Park Blvd","B-D",2,-73.8871379986991,40.8732443317197,"10468"
"Marble Hill - 225th St","1",1,-73.9098309989178,40.8745613327534,"10034"
"231st St","1",1,-73.9048340004264,40.8788563318743,"10463"
"215th St","1",1,-73.9152789993084,40.8694443329049,"10034"
"207th St","1",1,-73.9188190007204,40.864614333714,"10034"
"Inwood - 207th St","A",1,-73.9198990007627,40.8680723332653,"10034"
"238th St","1",1,-73.9008699993626,40.8846673343264,"10463"
"Van Cortlandt Park - 242nd St","1",1,-73.8985829997981,40.8892483334502,"10463"
"St Lawrence Ave","6",1,-73.867617998263,40.8315093340698,"10472"
"Mosholu Pkwy","4",1,-73.8846549998888,40.8797503329691,"10467"
"Norwood - 205th St","D",1,-73.8788549984992,40.8748113336823,"10467"
"Baychester Ave","5",1,-73.8385909977719,40.8786633337453,"10469"
"Eastchester - Dyre Ave","5",1,-73.8308340008274,40.8883003324904,"10466"
"Jamaica - 179th St","F",1,-73.7838170004415,40.712645999941,"11432"
"Wakefield - 241st St","2",1,-73.8506199983527,40.9031253340835,"10470"
"Botanic Garden","S",1,-73.959244999753,40.6703429999761,"11225"
"Bushwick - Aberdeen","L",1,-73.9052617622733,40.6828609584912,"11207"
"Wilson Ave","L",1,-73.9039586049315,40.6888668753308,"11207"
"Broadway Junction","L",1,-73.9031175784344,40.678456582034,"11207"
"Gun Hill Rd","5",1,-73.8463840010297,40.869526332888,"10469"
"Dyckman St","1",1,-73.925535999775,40.8605313345737,"10040"
"125th St","1",1,-73.9583720009298,40.8155813329265,"10027"
"Park Pl","S",1,-73.9576240003311,40.6747719998873,"11238"
"Franklin Ave - Fulton St","S",1,-73.955827001088,40.6805959994281,"11238"
"161st St - Yankee Stadium","4",1,-73.925691994952,40.8282306606359,"10452"
"167th St","4",1,-73.9213999975665,40.8355373330214,"10452"
"Brook Ave","6",1,-73.9192399981735,40.8075663332504,"10454"
"33rd St","7",1,-73.9309969987385,40.7445873335927,"11101"
"40th St","7",1,-73.9240159980613,40.7437813346974,"11104"
"145th St","A-B-C-D",4,-73.9440879283578,40.8247666940646,"10031"
"155th St","B-D",2,-73.9382089980995,40.8301353332158,"10039"
"161st St - Yankee Stadium","B-D",2,-73.9256509975147,40.8279053324133,"10452"
"167th St","B-D",2,-73.9184320007708,40.8337693320592,"10452"
"Ralph Ave","A-C",2,-73.9207859991905,40.6788223345236,"11233"
"Utica Ave","A-C",2,-73.9307289984532,40.6793643330165,"11233"
"36th St","E-M-R",3,-73.9290181847038,40.7519603774824,"11101"
"Steinway St","E-M-R",3,-73.9205264710409,40.7569876927245,"11103"
"Kosciuszko St","J",1,-73.9285089985692,40.693172334237,"11221"
"Gates Ave","J-Z",2,-73.922156000587,40.6895843325682,"11221"
"Central Ave","M",1,-73.9272429982954,40.6978733333905,"11221"
"Knickerbocker Ave","M",1,-73.9197200009711,40.6986603347729,"11237"
"Broadway","N-Q",2,-73.9258229985643,40.7614323320249,"11106"
"30th Ave","N-Q",2,-73.9214790000599,40.7667789997327,"11102"
"Jefferson St","L",1,-73.9229129995306,40.70660699936,"11237"
"Morgan Ave","L",1,-73.9331469999883,40.7061520000997,"11206"
"Queens Plz","E-M-R",3,-73.937138239261,40.7489180531286,"7024"
"18th Ave","F",1,-73.9769709998776,40.6297550001166,"11230"
"Ditmas Ave","F",1,-73.9781719999271,40.6361189998004,"11218"
"77th St","R",1,-74.0255099995848,40.6297420001518,"11209"
"Bay Ridge Ave","R",1,-74.0233769992409,40.6349670002803,"11220"
"55th St","D",1,-73.9953488255312,40.6314790943856,"11219"
"50th St","D",1,-73.9946587800966,40.636261224384,"11219"
"Ft Hamilton Pkwy","N",1,-74.0053510007242,40.6313860001442,"11219"
"8th Ave","N",1,-74.0115159973591,40.6349713328363,"11220"
"25th Ave","D",1,-73.9868290001644,40.5977040001676,"11214"
"Bay Pky","D",1,-73.99367619974,40.6019507952127,"11214"
"20th Ave","N",1,-73.9845219984124,40.6171093330156,"11204"
"18th Ave","N",1,-73.9904539985985,40.6206873312487,"11204"
"Bay Ridge - 95th St","R",1,-74.0308760006303,40.6166220006113,"11209"
"86th St","R",1,-74.0283980002836,40.6226870003229,"11209"
"79th St","D",1,-74.000582873947,40.6131592593445,"11214"
"71st St","D",1,-73.9988409490545,40.6192590430082,"11228"
"20th Ave","D",1,-73.9981743210268,40.6046773310553,"11214"
"18th Ave","D",1,-74.0015925925407,40.6077360652094,"11214"
"62nd St","D",1,-73.9968572505167,40.6262247961047,"11219"
"New Utrecht Ave","N",1,-73.996353000467,40.6248420001938,"11219"
"Ave U","F",1,-73.973376419041,40.5959251591519,"11223"
"Kings Hwy","F",1,-73.9723553083373,40.6032587388335,"11223"
"Brighton Beach","B-Q",2,-73.9613537857207,40.5777105297675,"11235"
"Sheepshead Bay","B-Q",2,-73.9540579118222,40.5865478800514,"11235"
"Ave U","B-Q",2,-73.9558112232107,40.5993092845579,"11229"
"Kings Hwy","B-Q",2,-73.9576087353908,40.6086389784246,"11229"
"Ave U","N",1,-73.9790840008705,40.5972363336441,"11223"
"Kings Hwy","N",1,-73.9803730021255,40.6040593333675,"11223"
"Neptune Ave","F",1,-73.9745927280224,40.5807390915216,"11224"
"Ave X","F",1,-73.9742659993023,40.589449999847,"11223"
"Bay 50th St","D",1,-73.9837650002573,40.588840999865,"11223"
"Gravesend - 86th St","N",1,-73.9781889997667,40.5924653339026,"11223"
"Ave P","F",1,-73.973002815289,40.6088431425786,"11230"
"Ave N","F",1,-73.9740485090752,40.6143570452946,"11230"
"Bay Pky","F",1,-73.9752569775525,40.6207319562063,"11230"
"Ave M","B-Q",2,-73.9592431047764,40.6173980781834,"11230"
"Bay Pky","N",1,-73.9817800102403,40.6114561229843,"11204"
"Ave I","F",1,-73.9760693319356,40.6250177734847,"11230"
"Ave J","B-Q",2,-73.9606931624678,40.6250231529057,"11230"
"Ave H","B-Q",2,-73.9615179387401,40.6292087105241,"11230"
"Neck Rd","B-Q",2,-73.9550782744625,40.5953220245764,"11229"
"21st St - Queensbridge","F",1,-73.9419376138155,40.7537396039846,"11101"
"50th St","A-C-E",3,-73.9859839999905,40.762456332634,"10019"
"7th Ave","B-D-E",3,-73.9816978238129,40.7629704854905,"10019"
"47th-50th Sts - Rockefeller Ctr","B-D-F-M",4,-73.9813310021191,40.7586413346655,"10036"
"57th St","F",1,-73.9773680013078,40.7640853339024,"10019"
"Lexington Ave - 63rd St","F",1,-73.9660896434021,40.7646184281508,"10065"
"Roosevelt Island - Main St","F",1,-73.9532350000273,40.7591723333099,"10044"
"59th St - Columbus Circle","A-B-C-D",4,-73.9816487233668,40.7682498649833,"10019"
"49th St","N-Q-R",3,-73.9842095658089,40.7598023070337,"10036"
"57th St","N-Q-R",3,-73.980729733136,40.7645658585087,"10019"
"5th Ave - 59th St","N-Q-R",3,-73.9733470001843,40.7648113327518,"10019"
"Lexington Ave - 59th St","N-Q-R",3,-73.9673750166445,40.7627091887439,"10022"
"Broadway - Nassau St","A-C",2,-74.0076230934279,40.7101624987217,"10038"
"Chambers St","A-C",2,-74.0085847360681,40.714111334149,"10007"
"42nd St - Port Authority Bus Term","A-C-E",3,-73.9897350004381,40.7573083318081,"10036"
"Myrtle-Willoughby Aves","G",1,-73.9490669982816,40.6946193325674,"11206"
"Flushing Ave","G",1,-73.9502340005062,40.7003769995184,"11206"
"23rd St","F-M",2,-73.9927650045466,40.7429546508876,"10009"
"Herald Sq - 34th St","B-D-F-M",4,-73.9877718901554,40.7497897329484,"10001"
"Hoyt - Schermerhorn Sts","A-C-G",3,-73.9850362399565,40.6884088094758,"11201"
"Jay St - Borough Hall","A-C-F",3,-73.9872181531118,40.6924709704447,"11201"
"East Broadway","F",1,-73.9901770011736,40.7138553340864,"10002"
"Delancey St","F",1,-73.988078068379,40.7186810756582,"10002"
"Lower East Side - 2nd Ave","F",1,-73.9899379994915,40.7234019995008,"10002"
"Flushing Ave","J-M",2,-73.9413773482563,40.7004047367346,"11206"
"Myrtle Ave","J-M-Z",3,-73.9356230004067,40.6971953336123,"11206"
"4th Ave","F-G",2,-73.9897789996763,40.6702720005814,"11215"
"Smith - 9th Sts","F-G",2,-73.9958917275746,40.6736413946091,"7030"
"Bergen St","F-G",2,-73.9907564955076,40.6861108809827,"11201"
"Lawrence St","N-R",2,-73.9860566782988,40.6922557293693,"11201"
"Court St","N-R",2,-73.9918183091348,40.6941968141207,"11201"
"Union Sq - 14th St","N-Q-R",3,-73.9905388616843,40.7358726006011,"10003"
"23rd St","N-R",2,-73.9893440004544,40.7413030001687,"10010"
"Prospect Ave","D-N-R",3,-73.9928720005896,40.6654140000933,"11215"
"9th St","D-N-R",3,-73.988301999704,40.6708470002231,"11215"
"3rd Ave","L",1,-73.9857500009869,40.7326913326192,"10003"
"Union Sq - 14th St","L",1,-73.9906697694308,40.7347636455266,"10003"
"Liberty Ave","A-C",2,-73.8965480007525,40.6745423328689,"11207"
"Broadway Junction","A-C",2,-73.905316000291,40.6783339998276,"11233"
"59th St","N-R",2,-74.0178809996847,40.6413619994424,"11220"
"45th St","N-R",2,-74.0100060003595,40.6489389998788,"11220"
"36th St","D-N-R",3,-74.0035489995692,40.6551439997517,"11232"
"9th Ave","D",1,-73.9944487440855,40.6464844108464,"11232"
"53rd St","N-R",2,-74.0140340004905,40.645069000509,"11220"
"Ft Hamilton Pkwy","D",1,-73.9942022375283,40.6409130445925,"11219"
"25th St","D-N-R",3,-73.9980909998329,40.6603970003212,"11232"
"Carroll St","F-G",2,-73.9949469798203,40.6802736846969,"11231"
"Spring St","A-C-E",3,-74.003738998729,40.7262273349522,"10013"
"181st St","A",1,-73.9379690016355,40.8516953326625,"10033"
"190th St","A",1,-73.9341799993755,40.8590223322204,"10040"
"116th St","A-B-C",3,-73.9547977809278,40.8050584671076,"10026"
"125th St","A-B-C-D",4,-73.9522479975436,40.8110720063283,"10027"
"Prince St","N-R",2,-73.9977020000719,40.7243289992258,"10012"
"8th St - NYU","N-R",2,-73.9925079989093,40.7304653319904,"10003"
"183rd St","4",1,-73.9038790007054,40.8584073334919,"10468"
"Fordham Rd","4",1,-73.901033998332,40.862803333207,"10468"
"World Trade Center","E",1,-74.0097446147849,40.7125642601071,"10007"
"Canal St - Holland Tunnel","A-C-E",3,-74.0052290019119,40.7208243330787,"10013"
"155th St","A-C",2,-73.9415140002858,40.8305183330084,"10032"
"163rd St - Amsterdam Av","A-C",2,-73.9398920015932,40.8360133326057,"10032"
"Fulton St","J-Z",2,-74.0079380008774,40.7100229996109,"10038"
"Chambers St","J-Z",2,-74.0034067308901,40.7132341227328,"10007"
"Canal St","J-Z",2,-73.9998263855515,40.7181742099614,"10013"
"City Hall","N-R",2,-74.0069858179478,40.7132726645312,"10007"
"Canal St","N-R",2,-74.0018259997319,40.7194653347773,"10013"
"South Ferry","1",1,-74.0131689598394,40.7017308409529,"10004"
"Whitehall St","N-R",2,-74.0130072373643,40.7031427073599,"10004"
"Rector St","N-R",2,-74.0129745623741,40.7077450899505,"10006"
"Fresh Pond Rd","M",1,-73.8958980008642,40.7062263319826,"11385"
"Middle Village - Metropolitan Ave","M",1,-73.8895772297877,40.7114316382792,"11379"
"Rector St","1",1,-74.0137830008063,40.707513333042,"10006"
"Cortlandt St (Temporarily Closed)","1",1,-74.0121880006975,40.7118353345252,"10006"
"Broad St","J-Z",2,-74.0110560004892,40.7064763341176,"10005"
"Cortlandt St (NB only)","N-R",2,-74.0111319648397,40.7105133176703,"10007"
"Dyckman St","A",1,-73.9272709991317,40.8654913325429,"10040"
"Grand St","B-D",2,-73.993752999259,40.7182673329238,"10002"
"Broadway - Lafayette St","B-D-F-M",4,-73.9962039984029,40.7252973322992,"10012"
"Bowery","J-Z",2,-73.9938069067281,40.7202472167381,"10002"
"Canal St","N-Q",2,-74.0010547125306,40.7188145968226,"10013"
"23rd St","A-C-E",3,-73.9980410006117,40.745906332964,"10011"
"34th St - Penn Station","A-C-E",3,-73.9933909993041,40.7522873341312,"10001"
"Jackson Hts - Roosevelt Av","E-F-M-R",4,-73.8912986649896,40.7465400244851,"11373"
"135th St","A-B-C",3,-73.947534808324,40.8179058921086,"10026"
"14th St","F-M",2,-73.9962089989118,40.7382283328837,"10011"
"6th Ave","L",1,-73.9977507887229,40.7377418031121,"10011"
"8th Ave","L",1,-74.0025780004777,40.7397770001213,"10011"
"14th St","A-C-E",3,-74.0016899994375,40.7408933336385,"10011"
"Franklin Ave","A-C",2,-73.9568479998051,40.6813799997593,"11238"
"Clinton - Washington Aves","A-C",2,-73.9658379986855,40.6832633328756,"11238"
"Forest Ave","M",1,-73.9030749999465,40.7044123340283,"11385"
"110th St","4-6-6 Express",3,-73.9442499969672,40.795020333524,"10029"
"86th St","4-5-6-6 Express",4,-73.9555889997846,40.7794923317709,"10028"
"York St","F",1,-73.9868849998245,40.6997430009218,"11201"
"High St","A-C",2,-73.9905310009557,40.6993373327378,"11201"
"Lafayette Ave","A-C",2,-73.9739459982416,40.6861133333011,"11217"
"Woodlawn","4",1,-73.8787509989088,40.886037333145,"10467"
"Bleecker St (Uptown)","4-6-6 Express",3,-73.9946590001333,40.7259149997298,"10012"
"103rd St","4-6-6 Express",3,-73.9474780015154,40.7906003329756,"10029"
"Euclid Ave","A-C-S",3,-73.8721059999421,40.6753773319332,"11208"
"88th St","A-S",2,-73.8514699989356,40.6798433343913,"11417"
"Cortelyou Rd","B-Q",2,-73.9637900549486,40.64094049872,"11226"
"116th St","4-6-6 Express",3,-73.9416169982848,40.7986293338459,"10029"
"Parkchester","6-6 Express",2,-73.8608159999581,40.8332263321803,"10472"
"80th St","A-S",2,-73.8589920012129,40.6793713345706,"11417"
"5th Ave - Bryant Pk","7-7 Express",2,-73.9819629987137,40.7538213335937,"10036"
"Spring St","4-6-6 Express",3,-73.9971409995062,40.7223013333172,"10012"
"125th St","4-5-6-6 Express",4,-73.9375940001906,40.8041383340293,"10035"
"Coney Island - Stillwell Av","D-F-N-Q",4,-73.9812359985597,40.577281333444,"11224"
